{
  "employees": [
    {
      "id": 1,
      "name": "Cheryl Takada",
      "title": "Customer Experience Representative",
      "shift": "Early",
      "hours": "5:00 AM to 2:00 PM",
      "supervisor": "Eileen Beedle"
    },
    {
      "id": 2,
      "name": "Nelson Taylor",
      "title": "Customer Experience Representative",
      "shift": "Early",
      "hours": "5:00 AM to 2:00 PM",
      "supervisor": "Eileen Beedle"
    },
    {
      "id": 3,
      "name": "Glenna Mendoza",
      "title": "Client Specialist",
      "shift": "Early",
      "hours": "5:00 AM to 2:00 PM",
      "supervisor": "Eileen Beedle"
    },
    {
      "id": 4,
      "name": "Chris Wellston",
      "title": "Customer Experience Representative",
      "shift": "Early",
      "hours": "5:00 AM to 2:00 PM",
      "supervisor": "Eileen Beedle"
    },
    {
      "id": 5,
      "name": "Eileen Beedle",
      "title": "Shift Supervisor",
      "shift": "Early",
      "hours": "6:00 AM to 3:00 PM",
      "supervisor": "Markus Jackson"
    },
    {
      "id": 6,
      "name": "Markus Jackson",
      "title": "Floor Manager",
      "shift": "Day",
      "hours": "8:00 AM to 4:00 PM",
      "supervisor": "Carolina Johnson"
    },
    {
      "id": 7,
      "name": "Violet Mendoza",
      "title": "Client Specialist",
      "shift": "Day",
      "hours": "8:30 AM to 4:30 PM",
      "supervisor": "Markus Jackson"
    },
    {
      "id": 8,
      "name": "Daniel Tan",
      "title": "Client Specialist",
      "shift": "Day",
      "hours": "8:00 AM to 4:00 PM",
      "supervisor": "Markus Jackson"
    },
    {
      "id": 9,
      "name": "Karen White",
      "title": "Client Specialist",
      "shift": "Day",
      "hours": "8:30 AM to 4:30 PM",
      "supervisor": "Markus Jackson"
    },
    {
      "id": 10,
      "name": "Hari Hasan",
      "title": "Client Specialist",
      "shift": "Day",
      "hours": "9:00 AM to 5:00 PM",
      "supervisor": "Markus Jackson"
    },
    {
      "id": 11,
      "name": "Manny Mendez",
      "title": "Client Specialist",
      "shift": "Day",
      "hours": "9:00 AM to 5:00 PM",
      "supervisor": "Markus Jackson"
    },
    {
      "id": 12,
      "name": "Daniella Salazar",
      "title": "Customer Experience Representative",
      "shift": "Day",
      "hours": "9:00 AM to 5:00 PM",
      "supervisor": "Markus Jackson"
    },
    {
      "id": 13,
      "name": "Darla White",
      "title": "Client Solutions Specialist",
      "shift": "Day",
      "hours": "9:30 AM to 5:30 PM",
      "supervisor": "Markus Jackson"
    },
    {
      "id": 14,
      "name": "Suresh Kumar",
      "title": "Customer Experience Representative",
      "shift": "Midday",
      "hours": "10:30 AM to 6:30 PM",
      "supervisor": "Markus Jackson"
    },
    {
      "id": 15,
      "name": "Carolina Johnson",
      "title": "Customer Experience Representative",
      "shift": "Day",
      "hours": "9:30 AM to 5:30 PM",
      "supervisor": "Dahlia Schannian"
    }
  ],
  "comments": [
    {
      "id": 1,
      "body": "The rep who helped me was fantastic.  She knew the products well and I was able to decide.",
      "postId": 1
    },
    {
      "id": 2,
      "body": "The client specialist knew my company and my department. The recommendations were spot on.",
      "postId": 1
    }
  ],
  "profile": {
    "name": "typicode"
  }
}
